~V
VERS. 2.00: Ver 2.00
WRAP. NO:
VEND. PRIZM:GeoGraphix
~W
STRT.F 10030.0000:START DEPTH
STOP.F 10260.0000:STOP DEPTH
STEP.F 1.0000:STEP
NULL. -999.2500:NULL VALUE
WELL. JAMES H CASSIDY 1:WELL
COMP. SKINNER CORP:COMPANY
UWI. 49005052170000:UNIQUE WELL ID
FLD. WILDCAT:FIELD
CNTY. CAMPBELL:COUNTY
STAT. WYOMING:STATE
CTRY. USA:COUNTRY
PDAT. :PERMANENT DATUM
LMF. :LOG MEASURED FROM
DMF. GR:DRILLING MEASURED FROM
LOC1. SW NW 09-48N-71W:LOCATION LINE 1
LOC2. :LOCATION LINE 2
LOC3. :LOCATION LINE 3
SEC. :SECTION
TWP. :TOWNSHIP
RAN. :RANGE
LOC. :LOCATION
DATE. :LOG DATE
~C
DEPT.F :DEPTH
RES.OHMM :3 DEEP RESISTIVITY
GR.GAPI :5 GAMMA RAY
SP.MV :4 SP CURVE
DT.US/F :2 SONIC DELTA-T
~P
EKB. 4622.0000:ELEVATION OF KELLY BUSHING
EDF. -999.2500:ELEVATION OF DRILLING FLOOR
EGL. -999.2500:ELEVATION OF GROUND LEVEL
EPD. -999.2500:ELEVATION OF PERMANENT DATUM
APD. -999.2500:LMF DISTANCE ABOVE PERMANENT DATUM
LAT. 44.1538:LATITUDE OF WELL LOCATION
LONG. -105.4006:LONGITUDE OF WELL LOCATION
~A
# ...
10173.0000   439.0000    31.0000    63.6000    45.9000 
10174.0000   169.0000    29.0000    63.0000    44.7000 
10175.0000   156.0000    25.0000    62.8000    44.8000 
10176.0000   142.0000    22.0000    62.8000    45.7000 
10177.0000   129.0000    22.0000    62.8000    48.0000 
10178.0000   119.0000    22.0000    62.8000    50.2000 
10179.0000    95.0000    33.0000    62.8000    51.7000 
10180.0000    76.0000    35.0000    62.8000    52.9000 
10181.0000    28.0000    33.0000    63.0000    54.0000 
10182.0000    29.0000    25.0000    63.0000    55.3000 
10183.0000    31.0000    22.0000    63.0000    56.4000 
10184.0000    33.0000    25.0000    63.0000    62.4000 
10185.0000    35.0000    26.0000    63.0000    63.1000 
10186.0000    37.0000    26.0000    63.0000    63.7000 
10187.0000    39.0000    24.0000    63.0000    63.6000 
10188.0000    41.0000    25.0000    63.0000    60.8000 
10189.0000    38.0000    27.0000    63.0000    59.7000 
10190.0000    39.0000    29.0000    63.0000    58.5000 
10191.0000    43.0000    31.0000    63.0000    58.7000 
10192.0000    45.0000    32.0000    63.0000    59.0000 
10193.0000    45.0000    26.0000    63.0000    59.2000 
10194.0000    16.9000    24.0000    63.0000    58.7000 
10195.0000    14.1000    27.0000    63.4000    60.4000 
10196.0000    13.7000    32.0000    63.4000    61.6000 
10197.0000    33.0000    32.0000    63.4000    62.4000 
10198.0000    36.0000    31.0000    63.4000    62.5000 
10199.0000    39.0000    26.0000    63.4000    60.8000 
10200.0000    42.0000    25.0000    63.4000    57.7000 
10201.0000    44.0000    33.0000    63.4000    55.1000 
10202.0000   106.0000    38.0000    63.4000    53.6000 
10203.0000   543.0000    44.0000    63.0000    50.4000 
10204.0000   234.0000    63.0000    62.8000    45.1000 
10205.0000   214.0000    70.0000    62.8000    45.2000 
10206.0000   189.0000    56.0000    62.8000    46.0000 
10207.0000   160.0000    27.0000    63.2000    49.3000 
10208.0000   156.0000    29.0000    63.4000    50.9000 
10209.0000   210.0000    35.0000    63.4000    51.0000 
10210.0000   193.0000    48.0000    63.6000    49.4000 
10211.0000   514.0000    61.0000    63.6000    46.6000 
10212.0000  3549.0000    66.0000    63.6000    45.6000 
10213.0000  3549.0000    34.0000    63.0000    44.6000 
10214.0000  3520.0000    29.0000    62.4000    50.1000 
10215.0000  3118.0000    26.0000    62.0000    50.9000 
10216.0000  2863.0000    25.0000    61.8000    51.3000 
10217.0000  2686.0000    23.0000    61.6000    50.6000 
10218.0000  1667.0000    22.0000    61.2000    49.8000 
10219.0000  1314.0000    17.0000    61.2000    47.1000 
10220.0000  1176.0000    15.0000    60.9000    44.9000 
10221.0000  1118.0000    22.0000    60.7000    44.0000 
10222.0000   765.0000    25.0000    60.5000    45.4000 
10223.0000   569.0000    29.0000    60.1000    46.2000 
10224.0000   520.0000    33.0000    59.3000    46.2000 
10225.0000   608.0000    35.0000    59.1000    45.2000 
10226.0000   765.0000    23.0000    58.7000    43.9000 
10227.0000   775.0000    27.0000    58.5000    43.1000 
10228.0000   706.0000    30.0000    58.3000    43.1000 
10229.0000    11.2000    33.0000    58.1000    43.4000 
10230.0000    11.2000    32.0000    57.9000    51.3000 
10231.0000    11.5000    29.0000    57.6000    53.5000 
10232.0000    14.4000    27.0000    57.0000    55.2000 
10233.0000    21.0000    25.0000    56.6000    56.1000 
10234.0000    21.0000    24.0000    56.2000    57.4000 
10235.0000    19.1000    23.0000    55.6000    58.9000 
10236.0000    17.2000    22.0000    55.0000    61.5000 
10237.0000    17.6000    23.0000    54.8000    62.8000 
10238.0000    16.3000    23.0000    54.7000    62.8000 
10239.0000    16.1000    23.0000    54.3000    62.5000 
10240.0000    27.0000    22.0000    54.1000    61.7000 
10241.0000    28.0000     0.0000    54.1000    61.4000 
10242.0000    34.0000     0.0000    53.9000    61.3000 
10243.0000    35.0000     0.0000    53.9000    61.3000 
10244.0000    37.0000     0.0000    53.5000    61.2000 
10245.0000    39.0000     0.0000    53.1000    60.9000 
10246.0000    40.0000     0.0000    53.1000    60.2000 
10247.0000    82.0000     0.0000    53.1000    59.0000 
10248.0000    75.0000     0.0000    53.3000    54.8000 
10249.0000    65.0000     0.0000    53.3000    59.8000 
10250.0000    49.0000     0.0000    53.3000    61.8000 
10251.0000    30.0000     0.0000    53.3000    63.6000 
10252.0000     7.4000     0.0000    53.3000    65.4000 
10253.0000     5.9000     0.0000    53.3000    66.8000 
10254.0000     6.5000     0.0000    53.3000    67.1000 
10255.0000     6.7000     0.0000    53.3000    66.4000 
10256.0000     6.7000     0.0000    53.3000    67.2000 
10257.0000     7.2000     0.0000    53.1000    66.4000 
10258.0000     7.6000     0.0000    52.5000    65.4000 
10259.0000     8.4000     0.0000    52.1000    64.1000 
10260.0000     8.5000     0.0000    52.1000    63.4000 
