~V
VERS. 2.00: Ver 2.00
WRAP. NO:
VEND. PRIZM:GeoGraphix
~W
STRT.F 10030.0000:START DEPTH
STOP.F 10260.0000:STOP DEPTH
STEP.F 1.0000:STEP
NULL. -999.2500:NULL VALUE
WELL. JAMES H CASSIDY 1:WELL
COMP. SKINNER CORP:COMPANY
UWI. 49005052170000:UNIQUE WELL ID
FLD. WILDCAT:FIELD
CNTY. CAMPBELL:COUNTY
STAT. WYOMING:STATE
CTRY. USA:COUNTRY
PDAT. :PERMANENT DATUM
LMF. :LOG MEASURED FROM
DMF. GR:DRILLING MEASURED FROM
LOC1. SW NW 09-48N-71W:LOCATION LINE 1
LOC2. :LOCATION LINE 2
LOC3. :LOCATION LINE 3
SEC. :SECTION
TWP. :TOWNSHIP
RAN. :RANGE
LOC. :LOCATION
DATE. :LOG DATE
~C
DEPT.F :DEPTH
RES.OHMM :3 DEEP RESISTIVITY
GR.GAPI :5 GAMMA RAY
SP.MV :4 SP CURVE
DT.US/F :2 SONIC DELTA-T
~P
EKB. 4622.0000:ELEVATION OF KELLY BUSHING
EDF. -999.2500:ELEVATION OF DRILLING FLOOR
EGL. -999.2500:ELEVATION OF GROUND LEVEL
EPD. -999.2500:ELEVATION OF PERMANENT DATUM
APD. -999.2500:LMF DISTANCE ABOVE PERMANENT DATUM
LAT. 44.1538:LATITUDE OF WELL LOCATION
LONG. -105.4006:LONGITUDE OF WELL LOCATION
~A
10030.0000    24.0000    97.0000    38.4000    60.4000 
10031.0000    23.0000   106.0000    38.4000    61.5000 
10032.0000    22.0000   107.0000    38.6000    61.8000 
10033.0000    22.0000   109.0000    38.6000    61.4000 
10034.0000    24.0000   109.0000    38.6000    60.5000 
10035.0000    23.0000   105.0000    38.6000    60.9000 
10036.0000    20.0000   101.0000    38.6000    62.8000 
10037.0000    19.0000   111.0000    38.6000    63.7000 
10038.0000    17.6000   114.0000    38.6000    64.4000 
10039.0000    18.3000   124.0000    38.8000    62.2000 
10040.0000    25.0000   119.0000    39.0000    60.0000 
10041.0000   696.0000    52.0000    39.3000    58.2000 
10042.0000   745.0000    42.0000    39.5000    55.4000 
10043.0000  1010.0000    31.0000    40.1000    52.0000 
10044.0000  2020.0000    25.0000    41.1000    52.0000 
10045.0000  2353.0000    22.0000    42.1000    50.6000 
10046.0000  2529.0000    22.0000    42.8000    49.0000 
10047.0000  2745.0000    19.0000    43.6000    46.5000 
10048.0000  2980.0000    17.0000    44.2000    45.7000 
10049.0000  3039.0000    16.0000    44.8000    44.8000 
10050.0000  3137.0000    15.0000    44.8000    45.5000 
10051.0000  3324.0000    15.0000    45.3000    45.9000 
10052.0000  3412.0000    15.0000    45.3000    46.0000 
10053.0000  3471.0000    15.0000    45.3000    46.0000 
10054.0000  3490.0000    15.0000    45.3000    46.0000 
10055.0000  3490.0000    16.0000    45.3000    46.3000 
10056.0000  3490.0000    17.0000    45.3000    47.8000 
10057.0000  3490.0000    19.0000    45.3000    48.1000 
10058.0000  3431.0000    21.0000    45.3000    47.4000 
10059.0000  3245.0000    21.0000    45.2000    46.0000 
10060.0000  3000.0000    22.0000    45.0000    46.0000 
10061.0000  2755.0000    22.0000    44.8000    46.2000 
10062.0000   686.0000    39.0000    44.4000    49.7000 
10063.0000   608.0000    46.0000    44.0000    52.3000 
10064.0000    36.0000    72.0000    43.8000    56.6000 
10065.0000    35.0000    99.0000    43.2000    60.3000 
10066.0000    36.0000   132.0000    43.0000    62.2000 
10067.0000    44.0000   128.0000    42.8000    61.6000 
10068.0000    46.0000   124.0000    42.8000    61.1000 
10069.0000    47.0000   125.0000    42.6000    61.0000 
10070.0000    47.0000   131.0000    42.4000    61.0000 
10071.0000    46.0000   134.0000    42.4000    60.9000 
10072.0000    42.0000   135.0000    42.2000    61.2000 
10073.0000    40.0000   131.0000    42.2000    61.8000 
10074.0000    40.0000   118.0000    42.2000    61.2000 
10075.0000    45.0000   115.0000    42.2000    60.4000 
10076.0000    47.0000   115.0000    42.2000    60.6000 
10077.0000    50.0000   117.0000    42.2000    62.4000 
10078.0000    42.0000   129.0000    42.2000    63.4000 
10079.0000    38.0000   136.0000    42.4000    63.6000 
10080.0000    32.0000   134.0000    43.4000    60.9000 
10081.0000    32.0000   125.0000    44.0000    59.1000 
10082.0000    37.0000    77.0000    44.8000    57.4000 
10083.0000    45.0000    50.0000    45.5000    55.1000 
10084.0000    49.0000    34.0000    47.9000    53.3000 
10085.0000   118.0000    22.0000    49.2000    52.7000 
10086.0000   348.0000    21.0000    50.2000    52.6000 
10087.0000   393.0000    25.0000    51.4000    52.9000 
10088.0000   401.0000    29.0000    52.5000    53.5000 
10089.0000   357.0000    31.0000    54.3000    53.1000 
10090.0000   161.0000    33.0000    56.2000    51.6000 
10091.0000   190.0000    22.0000    57.4000    48.8000 
10092.0000   286.0000    20.0000    57.8000    46.9000 
10093.0000   329.0000    23.0000    59.3000    47.4000 
10094.0000   344.0000    31.0000    61.2000    46.6000 
10095.0000   309.0000    37.0000    62.6000    48.8000 
10096.0000   228.0000    28.0000    63.2000    52.3000 
10097.0000    13.0000    21.0000    64.3000    61.3000 
10098.0000     8.8000    21.0000    64.9000    63.2000 
10099.0000     7.0000    21.0000    65.5000    65.7000 
10100.0000     5.8000    24.0000    67.1000    67.8000 
10101.0000     5.6000    25.0000    67.4000    73.1000 
10102.0000     5.4000    23.0000    67.4000    75.8000 
10103.0000     5.3000    22.0000    67.4000    76.2000 
10104.0000     5.2000    25.0000    67.4000    75.9000 
10105.0000     5.2000    25.0000    67.4000    74.8000 
10106.0000     5.2000    25.0000    67.4000    73.1000 
10107.0000     5.3000    24.0000    67.4000    71.7000 
10108.0000     5.7000    23.0000    67.2000    70.2000 
10109.0000     7.0000    24.0000    67.1000    69.1000 
10110.0000     8.3000    25.0000    66.9000    66.7000 
10111.0000     9.3000    26.0000    66.7000    64.7000 
10112.0000     8.9000    27.0000    66.3000    62.9000 
10113.0000    10.1000    27.0000    66.1000    62.8000 
10114.0000    13.1000    27.0000    65.9000    63.1000 
10115.0000    19.5000    26.0000    65.7000    61.7000 
10116.0000    23.0000    24.0000    65.7000    59.6000 
10117.0000   108.0000    20.0000    65.5000    59.2000 
10118.0000   301.0000    19.0000    65.3000    58.5000 
10119.0000   316.0000    21.0000    65.3000    58.2000 
10120.0000   331.0000    25.0000    65.3000    55.8000 
10121.0000  2843.0000    28.0000    65.7000    55.5000 
10122.0000  2755.0000    26.0000    66.9000    55.4000 
10123.0000  1382.0000    24.0000    67.1000    55.0000 
10124.0000  1078.0000    20.0000    67.6000    53.8000 
10125.0000   863.0000    19.0000    67.8000    53.3000 
10126.0000   716.0000    18.0000    67.8000    52.8000 
10127.0000   637.0000    19.0000    67.8000    51.0000 
10128.0000   578.0000    26.0000    67.8000    49.3000 
10129.0000   657.0000    37.0000    67.8000    48.6000 
10130.0000   775.0000    42.0000    67.6000    47.8000 
10131.0000  1069.0000    41.0000    67.6000    47.3000 
10132.0000   902.0000    33.0000    67.4000    46.8000 
10133.0000   775.0000    33.0000    67.4000    46.2000 
10134.0000   686.0000    31.0000    67.2000    45.8000 
10135.0000   588.0000    27.0000    67.1000    47.9000 
10136.0000    53.0000    30.0000    67.1000    54.0000 
10137.0000    29.0000    31.0000    66.9000    56.1000 
10138.0000    31.0000    21.0000    66.5000    57.8000 
10139.0000    32.0000    20.0000    66.3000    59.1000 
10140.0000    33.0000    21.0000    65.9000    60.3000 
10141.0000    35.0000    25.0000    65.3000    61.2000 
10142.0000    36.0000    33.0000    65.1000    61.6000 
10143.0000    38.0000    35.0000    64.9000    61.7000 
10144.0000    40.0000    32.0000    64.9000    58.8000 
10145.0000    42.0000    29.0000    64.7000    57.1000 
10146.0000    45.0000    27.0000    64.7000    56.4000 
10147.0000  1922.0000    26.0000    64.7000    54.9000 
10148.0000  1824.0000    24.0000    64.9000    49.4000 
10149.0000  3069.0000    20.0000    65.5000    47.3000 
10150.0000  3186.0000    20.0000    65.7000    44.5000 
10151.0000  3304.0000    19.0000    65.9000    45.9000 
10152.0000  1804.0000    21.0000    65.9000    46.2000 
10153.0000  1578.0000    23.0000    66.1000    46.2000 
10154.0000  1353.0000    24.0000    66.3000    46.6000 
10155.0000  1255.0000    22.0000    66.5000    46.6000 
10156.0000   990.0000    20.0000    66.7000    47.0000 
10157.0000   239.0000    19.0000    66.7000    46.8000 
10158.0000   175.0000    25.0000    66.9000    46.4000 
10159.0000   161.0000    28.0000    66.9000    47.5000 
10160.0000   138.0000    33.0000    66.7000    48.3000 
10161.0000   108.0000    36.0000    66.3000    49.1000 
10162.0000    80.0000    25.0000    66.1000    49.2000 
10163.0000    81.0000    22.0000    65.5000    49.7000 
10164.0000   102.0000    20.0000    65.5000    50.3000 
10165.0000   146.0000    24.0000    65.3000    51.2000 
10166.0000   208.0000    25.0000    64.9000    52.1000 
10167.0000   180.0000    25.0000    64.7000    51.8000 
10168.0000   166.0000    22.0000    64.3000    50.9000 
10169.0000   203.0000    22.0000    64.1000    51.0000 
10170.0000   289.0000    26.0000    64.0000    50.3000 
10171.0000   339.0000    29.0000    63.8000    49.7000 
10172.0000   409.0000    31.0000    63.6000    48.6000 
